stop_id,stop_code,stop_name,stop_desc,stop_lat,stop_lon,zone_id,stop_url,location_type,parent_station,stop_timezone,wheelchair_boarding
1,1,Dragobraća Okretnica,,43.9711,20.81197,1,,,,,1
2,2,Dragobraća Škola,,43.97644,20.8246,1,,,,,1
3,3,Drenovac Raskrsnica,,43.98374,20.83442,1,,,,,1
4,4,Korićani Dom,,43.98741,20.84503,1,,,,,1
5,5,Korićani,,43.9887,20.84988,1,,,,,1
6,6,Diletova Kafana,,43.99036,20.85695,1,,,,,1
7,7,Kozujevo,,43.99241,20.86574,1,,,,,1
8,8,Male Pčelice Raskrsnica,,43.99349,20.86973,1,,,,,1
9,9,Grosnička Stanica,,43.9952,20.87689,1,,,,,1
10,10,Stanovo,,43.99845,20.88466,1,,,,,1
11,11,Zvezda Čvor,,44.00061,20.88981,1,,,,,1
12,12,Arsenal,,44.00288,20.89472,1,,,,,1
13,13,Šest Topola,,44.00382,20.89945,1,,,,,1
14,14,Mala Vaga 1,,44.00645,20.90614,1,,,,,1
15,15,Pijac 1,,44.00883,20.91261,1,,,,,1
16,16,Ćiftina Ćuprija,,44.00913,20.91919,1,,,,,1
17,17,Hotel,,44.00888,20.91695,1,,,,,1
18,18,Jezero,,44.0119,20.92335,1,,,,,1
19,19,Filip Kljajić,,44.01239,20.92634,1,,,,,1
20,20,Ilina Voda,,44.01512,20.93255,1,,,,,1
21,21,Eko Park,,44.01617,20.93691,1,,,,,1
22,22,Dvadeset Ddrugi Decembar,,44.01883,20.94174,1,,,,,1
23,23,Ilićevo,,44.02222,20.94601,1,,,,,1
24,24,Trafo Ilićevo,,44.02668,20.95267,1,,,,,1
25,25,Arena,,44.03071,20.95796,1,,,,,1
26,26,Maršić Raskrsnica,,44.0338,20.96874,1,,,,,1
27,27,Maršić 2,,44.03614,20.97431,1,,,,,1
28,28,Maršić Škola,,44.0303,20.97235,1,,,,,1
29,29,Maršić Raskrsnica,,44.03363,20.96882,1,,,,,1
30,30,Korman 1,,44.04062,20.9803,1,,,,,1
31,31,Korman Brđani,,44.04777,20.98668,1,,,,,1
32,32,Korman,,44.05048,20.98909,1,,,,,1
33,33,Proleter,,44.02154,20.9378,1,,,,,1
34,34,Romanija,,44.02484,20.94221,1,,,,,1
35,35,Ćava,,43.98405,20.87532,1,,,,,1
36,36,Desimirovac Pumpa,,44.07276,20.87656,1,,,,,1
37,37,Kriva Ćuprija,,43.99364,20.9204,1,,,,,1
38,38,Prodavnica,,43.98914,20.92391,1,,,,,1
39,39,Beloševac Škola,,43.98525,20.92736,1,,,,,1
40,40,Ždraljica Tabla,,43.981,20.93158,1,,,,,1
41,41,Rečani Ž.,,43.97491,20.93553,1,,,,,1
42,42,Ždraljica,,43.97296,20.93741,1,,,,,1
43,43,Pirotehnika,,44.00128,20.91713,1,,,,,1
44,44,Pivara,,44.00557,20.91878,1,,,,,1
45,45,Rujna Zora,,44.0057,20.91926,1,,,,,1
46,46,Ured 112,,44.01238,20.91632,1,,,,,1
47,47,Dom Sindikata,,44.01511,20.91997,1,,,,,1
48,48,Uzor,,44.01731,20.91885,1,,,,,1
49,49,Mala Pijaca,,44.01639,20.91988,1,,,,,1
50,50,Bolnica,,44.01881,20.9129,1,,,,,1
51,51,Žitoprodukt,,44.02013,20.9106,1,,,,,1
52,52,Grudno,,44.02726,20.91647,1,,,,,1
53,53,Elvod,,44.02995,20.91644,1,,,,,1
54,54,Jabučar,,44.0321,20.91509,1,,,,,1
55,55,Milicijska Stanovi,,44.03485,20.91187,1,,,,,1
56,56,Sušica,,44.02408,20.91138,1,,,,,1
57,57,Hangar,,44.02713,20.91248,1,,,,,1
58,58,Bogoslovija,,44.03022,20.91263,1,,,,,1
59,59,Jabučar,,44.03259,20.91199,1,,,,,1
60,60,Stovarište,,44.03727,20.91048,1,,,,,1
61,61,Petrovac,,44.0397,20.91012,1,,,,,1
62,62,Grand,,44.04713,20.90488,1,,,,,1
63,63,Rosići,,44.05103,20.90057,1,,,,,1
64,64,Šumski Raj,,44.05452,20.89701,1,,,,,1
65,65,Ruski Spomenik,,44.05867,20.89255,1,,,,,1
66,66,Opornica,,44.06256,20.88714,1,,,,,1
67,67,Vulkanizer,,44.02669,20.91598,1,,,,,1
68,68,Porta,,44.0037,20.85679,1,,,,,1
69,69,Okretnica Vojska,,44.02877,20.84098,1,,,,,1
70,70,Škola,,43.99758,20.86019,1,,,,,1
71,71,Dom,,43.9989,20.86285,1,,,,,1
72,72,Braće Petrović,,43.99627,20.86657,1,,,,,1
73,73,Samoposluga,,44.0393,20.91065,1,,,,,1
74,74,Bare,,44.04481,20.91474,1,,,,,1
75,75,Škola,,44.05112,20.91974,1,,,,,1
76,76,Petrovac Okretnica,,44.05308,20.92119,1,,,,,1
77,77,Đonsko Brdo,,44.06367,20.92605,1,,,,,1
78,78,Novi Milanovac,,44.07318,20.93355,1,,,,,1
79,79,Remontni Zavod,,43.96235,20.94933,1,,,,,1
80,80,Donja Sabanta,,43.95468,20.96281,1,,,,,1
81,81,Proleće,,44.0094,20.92216,1,,,,,1
82,82,Samoposluga,,44.00376,20.92893,1,,,,,1
83,83,Mlin,,44.0014,20.93318,1,,,,,1
84,84,Bresnica Most,,43.99718,20.93813,1,,,,,1
85,85,Bresnica Most,,43.99691,20.93805,1,,,,,1
86,86,Viš,,44.00801,20.91542,1,,,,,1
87,87,Brioni,,44.0036,20.92277,1,,,,,1
88,88,Rujna Zora,,44.00624,20.9194,1,,,,,1
89,89,Brioni,,44.00353,20.92347,1,,,,,1
90,90,Aerodrom Crkva,,44.03094,20.91069,1,,,,,1
91,91,Aerodrom Raskrsnica,,44.03183,20.90544,1,,,,,1
92,92,Vodoterm,,44.03285,20.90139,1,,,,,1
93,93,Elektrošumadija,,44.02875,20.91808,1,,,,,1
94,94,Metro,,44.021003,20.931458,1,,,,,1
95,95,Des,,44.03003,20.915,1,,,,,1
96,96,Pošta,,44.0278,20.91188,1,,,,,1
97,97,Aerodrom Stadion,,44.02868,20.90559,1,,,,,1
98,98,Prodavnica,,44.03009,20.8963,1,,,,,1
99,99,Grujina Česma,,44.02931,20.90117,1,,,,,1
100,100,Vinogradi,,44.02989,20.89142,1,,,,,1
101,101,Prodavnica Pkb,,44.03515,20.88676,1,,,,,1
102,102,Prodavnica Kućni Br. 50,,44.0378,20.88423,1,,,,,1
103,103,Bazeni,,44.03949,20.88053,1,,,,,1
104,104,Zapis,,44.03853,20.87301,1,,,,,1
105,105,Poskurice Dom,,44.04192,20.85511,1,,,,,1
106,106,Poskurice,,44.04158,20.86015,1,,,,,1
107,107,Đurđevski Kraj,,44.04926,20.83695,1,,,,,1
108,108,Kovač,,44.04495,20.83942,1,,,,,1
109,109,Šljivovac,,44.05346,20.83839,1,,,,,1
110,110,Trafo,,43.99492,20.9436,1,,,,,1
111,111,Teferičko Groblje,,43.9947,20.94864,1,,,,,1
112,112,Trmbas Raskrsnica,,43.99407,20.95276,1,,,,,1
113,113,Trmbas 1,,43.98682,20.95792,1,,,,,1
114,114,Trmbas Prodavnica,,43.98447,20.95738,1,,,,,1
115,115,Trmbas Okretnica,,43.98145,20.9511,1,,,,,1
116,116,Dom Starih,,44.02193,20.90182,1,,,,,1
117,117,Medicinska Škola,,44.02043,20.9083,1,,,,,1
118,118,Studentski Dom,,44.01998,20.91009,1,,,,,1
119,119,Bunarče,,43.99246,20.96077,1,,,,,1
120,120,Strahinjina Kuća,,43.98965,20.96669,1,,,,,1
121,121,Obradova Kuća,,43.9893,20.97057,1,,,,,1
122,122,Okretnica,,43.99006,20.97186,1,,,,,1
123,123,Pionir,,44.01108,20.91429,1,,,,,1
124,124,Pozorište,,44.01105,20.90967,1,,,,,1
125,125,Ambulanta,,44.0111,20.9037,1,,,,,1
126,126,Soliter Y,,44.01282,20.89671,1,,,,,1
127,127,Sokolana,,44.00965,20.89556,1,,,,,1
128,128,Stara Kolonija Kapija,,44.00837,20.89956,1,,,,,1
129,129,Mala Vaga,,44.00659,20.90491,1,,,,,1
130,130,Grošnica Ž.Stanica,,43.99364,20.87686,1,,,,,1
131,131,Kapija Vojna,,43.991,20.87738,1,,,,,1
132,132,Raskrsnica,,43.9853,20.87935,1,,,,,1
133,133,Spomenik,,43.98004,20.88216,1,,,,,1
134,134,Vodenica,,43.97434,20.8792,1,,,,,1
135,135,Grošnička Crkva,,43.96971,20.87494,1,,,,,1
136,136,Radosavljevića Kuća,,43.96091,20.87401,1,,,,,1
137,137,Dom,,43.95679,20.8747,1,,,,,1
138,138,Čargova Kuća,,43.9482,20.87428,1,,,,,1
139,139,Adžine Livade,,43.94084,20.87354,1,,,,,1
140,140,Vodajaža,,43.93439,20.8781,1,,,,,1
141,141,Vinjište Groblje,,43.96867,20.86783,1,,,,,1
142,142,Zadruga,,43.964,20.84969,1,,,,,1
143,143,Raskrsnica,,43.95892,20.84628,1,,,,,1
144,144,Uma,,43.96743,20.85998,1,,,,,1
145,145,Miloradovića Kuća,,43.95349,20.84796,1,,,,,1
146,146,Koš,,43.95713,20.8591,1,,,,,1
147,147,Bandera,,43.96083,20.86739,1,,,,,1
148,148,Samoposluga,,44.00697,20.88715,1,,,,,1
149,149,Centralna Radionica,,44.00449,20.8939,1,,,,,1
150,150,Plaza,,44.00931,20.89784,1,,,,,1
151,151,Erdoglija,,44.01262,20.89985,1,,,,,1
152,152,Erdoglijski Potok,,44.01472,20.90309,1,,,,,1
153,153,Park,,44.01612,20.907,1,,,,,1
154,154,Tehnička Škola,,44.01949,20.90927,1,,,,,1
155,155,Stara Opština,,44.00258,20.968,1,,,,,1
156,156,Živkovići,,44.0081,20.968,1,,,,,1
157,157,Izvor,,44.00546,20.96621,1,,,,,1
158,158,Trafo,,44.01577,20.9552,1,,,,,1
159,159,Spomenik,,44.01497,20.96051,1,,,,,1
160,160,Škola,,44.01891,20.95003,1,,,,,1
161,161,Galerija,,44.02234,20.88654,1,,,,,1
162,162,Hotel,,44.02384,20.87633,1,,,,,1
163,163,Roda Centar,,44.01579,20.92292,1,,,,,1
164,164,Servis,,44.02049,20.9257,1,,,,,1
165,165,Mlekara,,44.02387,20.92779,1,,,,,1
166,166,Institut Ka Centru,,44.02612,20.929,1,,,,,1
167,167,Data Centar 1,,44.03044,20.93029,1,,,,,1
168,168,Bozman Raskrsnica Ka Centru,,44.03823,20.93649,1,,,,,1
169,169,Bozman,,44.04333,20.93131,1,,,,,1
170,170,Aksića Kuće,,44.04288,20.9438,1,,,,,1
171,171,Jovanovac Raskrsnica,,44.04534,20.94763,1,,,,,1
172,172,Mesna Kancelarija,,44.04999,20.95254,1,,,,,1
173,173,Brkića Kuća,,44.05192,20.95884,1,,,,,1
174,174,Igraliste,,44.05496,20.96467,1,,,,,1
175,175,Prodavnica,,44.05789,20.97262,1,,,,,1
176,176,Trafo,,44.05992,20.97656,1,,,,,1
177,177,Erdeč Staro Selo,,43.97167,20.89907,1,,,,,1
178,178,Vasiljevići,,43.97701,20.89586,1,,,,,1
179,179,Branko Perisić Badža,,43.98096,20.89277,1,,,,,1
180,180,Erdeč 1 /Ambulanta/,,43.98424,20.89103,1,,,,,1
181,181,Erdeč Trafo,,43.98825,20.89085,1,,,,,1
182,182,Prodavnica,,43.99077,20.88901,1,,,,,1
183,183,Pruga,,43.99406,20.88852,1,,,,,1
184,184,Institut,,43.99817,20.89106,1,,,,,1
185,185,Zvezda,,44.00058,20.88996,1,,,,,1
186,186,Česma,,44.01482,20.93944,1,,,,,1
187,187,Novo Naselje,,44.01601,20.94317,1,,,,,1
188,188,Milovan Pavlović Mipa,,44.01392,20.94314,1,,,,,1
189,189,Košutnjak Brdo,,44.01046,20.94519,1,,,,,1
190,190,Košutnjak Okretnica,,44.00696,20.94794,1,,,,,1
191,191,Bagremar,,44.00755,20.88369,1,,,,,1
192,192,Prodavnica Kružni Put,,44.00704,20.87888,1,,,,,1
193,193,Nova Škola,,44.00747,20.87291,1,,,,,1
194,194,Velika Krivina,,44.00574,20.86876,1,,,,,1
195,195,Porta Zapis,,44.00184,20.87626,1,,,,,1
196,196,Stanovljansko Igralište,,44.00341,20.87179,1,,,,,1
197,197,Stara Škola,,44.00106,20.8808,1,,,,,1
198,198,Stanovo Semafor,,43.99906,20.88524,1,,,,,1
199,199,Treptač,,44.02556,20.86422,1,,,,,1
200,200,Škola,,44.02593,20.86158,1,,,,,1
201,201,Poskurički Put,,44.02646,20.85791,1,,,,,1
202,202,Crkva,,44.02746,20.85109,1,,,,,1
203,203,Šumarička Ravan,,44.02798,20.84744,1,,,,,1
204,204,Vojska,,44.02866,20.84279,1,,,,,1
205,205,Stari Hrast,,44.02962,20.83605,1,,,,,1
206,206,Divostin,,44.03136,20.82759,1,,,,,1
207,207,Pejovići,,44.03119,20.82077,1,,,,,1
208,208,Drača,,44.03265,20.81323,1,,,,,1
209,209,Spomenik,,44.0359,20.80894,1,,,,,1
210,210,Vikend Naselje,,44.04017,20.80836,1,,,,,1
211,211,Drača Brdo,,44.04037,20.80212,1,,,,,1
212,212,Veliko Polje,,43.9859,20.86549,1,,,,,1
213,213,Prodavnica,,43.98696,20.87029,1,,,,,1
214,214,Škola,,43.98827,20.8739,1,,,,,1
215,215,Baljkovac,,43.96408,20.91987,1,,,,,1
216,216,Bojanići Raskrsnica,,43.96541,20.91359,1,,,,,1
217,217,Groblje,,43.97325,20.9069,1,,,,,1
218,218,Erdečka Kosa,,43.97651,20.90362,1,,,,,1
219,219,Koš,,43.97999,20.90196,1,,,,,1
220,220,Prodavnica,,43.98484,20.90302,1,,,,,1
221,221,Zeleni Pojas,,43.98945,20.9094,1,,,,,1
222,222,Električar,,43.98929,20.9063,1,,,,,1
223,223,Levač /Prodavnica/,,43.99101,20.91415,1,,,,,1
224,224,Pruga,,43.992,20.91782,1,,,,,1
225,225,Vidikovac,,43.97598,20.91358,1,,,,,1
226,226,Škola,,43.9716,20.91016,1,,,,,1
227,227,Srednja Mala,,43.97932,20.91496,1,,,,,1
228,228,Porta,,43.98365,20.91665,1,,,,,1
229,229,Pruga,,43.9905,20.91902,1,,,,,1
230,230,Potok,,44.0619,20.97987,1,,,,,1
231,231,Gornja Mala,,44.06853,20.97999,1,,,,,1
232,232,Škola,,44.07036,20.97673,1,,,,,1
233,233,Miloševića Brdo,,44.07564,20.97533,1,,,,,1
234,234,Milosavljevići Raskrsnica,,44.07585,20.97135,1,,,,,1
235,235,Milosavljevići,,44.07579,20.96048,1,,,,,1
236,236,Živadinovići,,44.07429,20.95324,1,,,,,1
237,237,Živadinovići Okretnica,,44.0742,20.95028,1,,,,,1
238,238,Višnjak Raskrsnica,,44.00697,20.86813,1,,,,,1
239,239,Prodavnica Višnjak,,44.01186,20.86748,1,,,,,1
240,240,Bjelašnička,,44.01487,20.86805,1,,,,,1
241,241,Višnjak,,44.01399,20.86352,1,,,,,1
242,242,Višnjak Okretnica,,44.01564,20.86558,1,,,,,1
243,243,Korman Kamenolom,,44.06113,20.98988,1,,,,,1
244,244,Kapovac,,44.07054,20.99779,1,,,,,1
245,245,Igralište,,44.0748,21.00061,1,,,,,1
246,246,Raskrsnica Cerjak,,44.06411,21.01062,1,,,,,1
247,247,Botunje,,44.06244,21.01479,1,,,,,1
248,248,Desimirovac R. Pumpa,,44.07237,20.87717,1,,,,,1
249,249,Bapska Mala,,44.07445,20.88319,1,,,,,1
250,250,Gornja Mala,,44.07398,20.88802,1,,,,,1
251,251,Živaljevići,,44.07403,20.89363,1,,,,,1
252,252,Desimirovac Selo,,44.07792,20.90404,1,,,,,1
253,253,Autobuska Stanica,,44.01104,20.92735,1,,,,,1
254,254,Koš,,43.9954,20.93251,1,,,,,1
255,255,Dom Zdravlja,,43.99479,20.92879,1,,,,,1
256,256,Bukureška Raskrsnica,,44.03085,20.89904,1,,,,,1
257,257,Iris,,44.02871,20.95055,1,,,,,1
258,258,Kvantaš,,44.03155,20.95139,1,,,,,1
259,259,Hala Jezero 1,,44.01322,20.92357,1,,,,,1
260,260,Okretnica Bagremar,,44.00664,20.88069,1,,,,,1
261,261,M.Obradovića 65,,44.00444,20.88304,1,,,,,1
262,262,Crkva,,44.00196,20.88604,1,,,,,1
263,263,Škola,,44.03089,20.89866,1,,,,,1
264,264,Belodrimska Raskrsnica,,44.03285,20.89814,1,,,,,1
265,265,Denino Brdo,,44.03563,20.89528,1,,,,,1
266,266,Male Pčelice Prodavnica,,44.00427,20.85339,1,,,,,1
267,267,Mezijska Raskrsnica,,44.00199,20.85282,1,,,,,1
268,268,Solunska 65,,43.99919,20.85524,1,,,,,1
269,269,Rakovička Raskrsnica,,43.99115,20.88311,1,,,,,1
270,270,Donje Polje,,43.98724,20.8831,1,,,,,1
271,271,Julin Dućan,,43.9814,20.94014,1,,,,,1
272,272,Ždraljica Vodovod Okretnica,,43.97773,20.94316,1,,,,,1
273,273,Kod Koša,,43.9872,20.93414,1,,,,,1
274,274,Bresnica Crkva,,43.99063,20.93109,1,,,,,1
275,275,Prvi Maj,,44.01976,20.92006,1,,,,,1
276,276,Prvi Maj,,44.01978,20.92014,1,,,,,1
277,277,Univerzitet,,44.02298,20.92035,1,,,,,1
278,278,Mlavska,,44.03833,20.90707,1,,,,,1
279,279,Betonjerka,,44.03546,20.90408,1,,,,,1
280,280,Tenkodrom,,44.03454,20.90724,1,,,,,1
281,281,Vodoterm,,44.03328,20.90116,1,,,,,1
282,282,Ilidenska,,44.00365,20.89022,1,,,,,1
283,283,Vikend Naselje Desimirovac,,44.06907,20.87966,1,,,,,1
284,284,Stara Opstina Raskrsnica,,44.01296,20.96699,1,,,,,1
285,285,Donja Mala,,44.05087,20.92434,1,,,,,1
286,286,Kikindska,,44.04589,20.92684,1,,,,,1
287,287,Resnik Raskrsnica,,44.07653,20.89951,1,,,,,1
288,288,Stara Zvezda,,44.00253,20.89078,1,,,,,1
289,289,Resnik (G. Mala),,44.10902,20.92417,1,,,,,1
290,290,I Rakalj,,43.92168,21.01738,1,,,,,1
291,291,Zmajevac,,43.9811,20.7844,1,,,,,1
292,292,Dubrava (O),,43.89355,21.00868,1,,,,,1
293,293,Most,,44.07215,20.68295,1,,,,,1
294,294,Garaža,,44.06385,20.68724,1,,,,,1
295,295,Mrkojevac,,44.08123,20.86963,1,,,,,1
296,296,Stari Mlin,,44.0889,20.86564,1,,,,,1
297,297,Cerovac Dom,,44.09942,20.85831,1,,,,,1
298,298,Cerovac Raskrsnica,,44.10408,20.84944,1,,,,,1
299,299,Cerovac Selo,,44.1009,20.84473,1,,,,,1
300,300,Okretnica Bazeni,,44.0398,20.8795,1,,,,,1
301,301,Dragobraća Okretnica,,43.97124,20.81183,1,,,,,1
302,302,Dragobraća Škola,,43.97672,20.82531,1,,,,,1
303,303,Drenovac Raskrsnica,,43.98394,20.83452,1,,,,,1
304,304,Korićani Dom,,43.98751,20.84471,1,,,,,1
305,305,Korićani,,43.98879,20.84974,1,,,,,1
306,306,Diletova Kafana,,43.99034,20.8564,1,,,,,1
307,307,Kozujevo,,43.99238,20.86495,1,,,,,1
308,308,Male Pčelice Raskrsnica,,43.99376,20.87027,1,,,,,1
309,309,Grosnička Stanica,,43.99511,20.87602,1,,,,,1
310,310,Stanovo,,43.99829,20.88392,1,,,,,1
311,311,Zvezda Čvor,,44.00066,20.8895,1,,,,,1
312,312,Arsenal,,44.00288,20.89397,1,,,,,1
313,313,Šest Topola,,44.00375,20.89877,1,,,,,1
314,314,Mala Vaga 2,,44.00624,20.90509,1,,,,,1
315,315,Pijac 2,,44.00783,20.90948,1,,,,,1
316,316,Puavice,,44.10868,20.84116,1,,,,,1
317,317,Lužnice R.,,44.11362,20.83869,1,,,,,1
318,318,Jezero Sport,,44.01032,20.92236,1,,,,,1
319,319,Filip Kljajić 2,,44.01229,20.92638,1,,,,,1
320,320,Ilina Voda 2,,44.01502,20.93254,1,,,,,1
321,321,Eko Park,,44.01612,20.93712,1,,,,,1
322,322,Dvadeset Drugi Decembar,,44.01869,20.94174,1,,,,,1
323,323,Ilićevo,,44.02232,20.94634,1,,,,,1
324,324,Trafo Ilićevo,,44.02671,20.95291,1,,,,,1
325,325,Arena,,44.03076,20.95815,1,,,,,1
326,326,Maršić Raskrsnica,,44.03375,20.96894,1,,,,,1
327,327,Maršić 2,,44.03624,20.97467,1,,,,,1
328,328,Vila Vera,,44.12374,20.82431,1,,,,,1
329,329,Maršić Raskrsnica,,44.03361,20.96874,1,,,,,1
330,330,Korman 1,,44.04073,20.98046,1,,,,,1
331,331,Korman Brđani,,44.04772,20.98676,1,,,,,1
332,332,Korman,,44.05055,20.98921,1,,,,,1
333,333,Proleter,,44.02117,20.93748,1,,,,,1
334,334,Romanija,,44.02497,20.94254,1,,,,,1
335,335,Kožuar,,44.13401,20.80892,1,,,,,1
336,336,Desimirovac Pumpa,,44.07269,20.87679,1,,,,,1
337,337,Kriva Ćuprija,,43.99319,20.92052,1,,,,,1
338,338,Prodavnica,,43.98863,20.92418,1,,,,,1
339,339,Beloševac Škola,,43.98473,20.92764,1,,,,,1
340,340,Ždraljica Tabla,,43.98134,20.931,1,,,,,1
341,341,Rečani Ž.,,43.97608,20.93428,1,,,,,1
342,342,Ždraljica,,43.97294,20.93718,1,,,,,1
343,343,Pirotehnika,,44.00036,20.91724,1,,,,,1
344,344,Pivara,,44.00573,20.91882,1,,,,,1
345,345,Čumić Škola,,44.14783,20.78148,1,,,,,1
346,346,Ured 2,,44.01196,20.91627,1,,,,,1
347,347,Dom Sindikata,,44.01527,20.92036,1,,,,,1
348,348,Čumić Posta,,44.13672,20.78381,1,,,,,1
349,349,Kremenjača,,44.13624,20.76279,1,,,,,1
350,350,Bolnica,,44.01873,20.9136,1,,,,,1
351,351,Sveinja,,44.14301,20.74276,1,,,,,1
352,352,Petrovići,,44.15387,20.7267,1,,,,,1
353,353,Dosina Kuća,,44.16344,20.71317,1,,,,,1
354,354,Vlakča,,44.16867,20.70731,1,,,,,1
355,355,Kotraža,,44.16189,20.68957,1,,,,,1
356,356,Sušica,,44.02398,20.91152,1,,,,,1
357,357,Azbest Pumpa,,44.15732,20.66784,1,,,,,1
358,358,Bozman Ka Centru,,44.04377,20.93037,1,,,,,1
359,359,Lužnice Raskrsnica,,44.11354,20.8383,1,,,,,1
360,360,Zadruga,,44.11072,20.83027,1,,,,,1
361,361,Petrovac,,44.03955,20.91035,1,,,,,1
362,362,Grand,,44.04749,20.90471,1,,,,,1
363,363,Rosići,,44.05131,20.90045,1,,,,,1
364,364,Šumski Raj,,44.0548,20.89706,1,,,,,1
365,365,Ruski Spomenik,,44.0582,20.89337,1,,,,,1
366,366,Opornica,,44.06261,20.88735,1,,,,,1
367,367,Kafana,,44.10745,20.82558,1,,,,,1
368,368,Katanići,,44.10655,20.80244,1,,,,,1
369,369,Groblje,,44.003,20.8599,1,,,,,1
370,370,Jeftići,,44.10385,20.79466,1,,,,,1
371,371,Dom,,43.99897,20.86282,1,,,,,1
372,372,Braće Petrović,,43.99591,20.86696,1,,,,,1
373,373,Samoposluga,,44.03924,20.91071,1,,,,,1
374,374,Bare,,44.04486,20.91495,1,,,,,1
375,375,Škola,,44.0512,20.92004,1,,,,,1
376,376,Okretnica,,44.053,20.92132,1,,,,,1
377,377,Đonsko Brdo,,44.06352,20.92602,1,,,,,1
378,378,Gelovića Kuće,,44.09977,20.7807,1,,,,,1
379,379,Remontni Zavod,,43.96264,20.94908,1,,,,,1
380,380,Rečani,,44.08968,20.79593,1,,,,,1
381,381,Glavica,,44.0973,20.78239,1,,,,,1
382,382,Samoposluga,,44.00295,20.92998,1,,,,,1
383,383,Mlin,,44.0005,20.93401,1,,,,,1
384,384,Bresnica Most,,43.99684,20.93872,1,,,,,1
385,385,Bresnica Most,,43.99701,20.93803,1,,,,,1
386,386,Mironić,,44.10329,20.75743,1,,,,,1
387,387,Krečane,,44.1134,20.72902,1,,,,,1
388,388,Prodavnica Veliki Šenj,,44.10577,20.72853,1,,,,,1
389,389,V. Šenj Škola,,44.09815,20.72697,1,,,,,1
390,390,Aerodrom Crkva,,44.031,20.91066,1,,,,,1
391,391,Aerodrom Raskrsnica,,44.03194,20.90536,1,,,,,1
392,392,Vodoterm,,44.03295,20.90121,1,,,,,1
393,393,Elektrošumadija,,44.02795,20.92022,1,,,,,1
394,394,Seliste,,44.07309,20.82719,1,,,,,1
395,395,Seliste Mz,,44.07644,20.82311,1,,,,,1
396,396,G. Grbicemost,,44.08871,20.80193,1,,,,,1
397,397,Aerodrom Stadion,,44.02873,20.9058,1,,,,,1
398,398,Prodavnica,,44.03027,20.89585,1,,,,,1
399,399,Grujina Česma,,44.02934,20.90133,1,,,,,1
400,400,Vinogradi,,44.03004,20.89166,1,,,,,1
401,401,Prodavnica Pkb,,44.03527,20.88673,1,,,,,1
402,402,Prodavnica Kućni Br. 50,,44.03797,20.88414,1,,,,,1
403,403,Bazeni,,44.03941,20.88097,1,,,,,1
404,404,Zapis,,44.03857,20.87314,1,,,,,1
405,405,Poskurice Dom,,44.04192,20.8547,1,,,,,1
406,406,Poskurice,,44.04161,20.86024,1,,,,,1
407,407,Đurđevski Kraj,,44.04913,20.83695,1,,,,,1
408,408,Kovač,,44.04503,20.83937,1,,,,,1
409,409,Lipar Raskrsnica,,43.94852,20.97356,1,,,,,1
410,410,Trafo,,43.99493,20.94307,1,,,,,1
411,411,Teferičko Groblje,,43.99467,20.94949,1,,,,,1
412,412,Trmbas Raskrsnica,,43.99399,20.95304,1,,,,,1
413,413,Trmbas 1,,43.98688,20.95785,1,,,,,1
414,414,Trmbas Prodavnica,,43.98432,20.95738,1,,,,,1
415,415,Orašje Raskrsnica,,43.94369,20.97878,1,,,,,1
416,416,Dom Starih,,44.02193,20.90222,1,,,,,1
417,417,Medicinska Škola,,44.02033,20.90915,1,,,,,1
418,418,Gornja Sabanta,,43.94134,21.00463,1,,,,,1
419,419,Bunarče,,43.99243,20.96046,1,,,,,1
420,420,Strahinjina Kuća,,43.98967,20.96646,1,,,,,1
421,421,Obradova Kuća,,43.98934,20.97072,1,,,,,1
422,422,Vikend Naselje,,44.13416,20.86659,1,,,,,1
423,423,Spomenik,,44.14197,20.85741,1,,,,,1
424,424,G.Jarušice Dom,,44.15115,20.8547,1,,,,,1
425,425,G.Jarušice Trafo,,44.15451,20.85038,1,,,,,1
426,426,Glogovac,,44.05491,20.65544,1,,,,,1
427,427,Kamenica Škola,,44.06615,20.65165,1,,,,,1
428,428,Stara Kolonija Kapija,,44.00847,20.89946,1,,,,,1
429,429,Velike Pčelice Gaj,,43.91635,20.99447,1,,,,,1
430,430,Sušara,,43.93667,21.00989,1,,,,,1
431,431,Kapija Vojna,,43.98943,20.87755,1,,,,,1
432,432,Raskrsnica,,43.98512,20.87937,1,,,,,1
433,433,Spomenik,,43.9803,20.88202,1,,,,,1
434,434,Vodenica,,43.97428,20.87905,1,,,,,1
435,435,Grošnička Crkva,,43.96963,20.87484,1,,,,,1
436,436,Radosavljevića Kuća,,43.96053,20.87402,1,,,,,1
437,437,Dom,,43.95675,20.87462,1,,,,,1
438,438,Čargova Kuća,,43.94815,20.87416,1,,,,,1
439,439,Adžine Livade,,43.94072,20.87361,1,,,,,1
440,440,Pavićevići,,44.08021,20.93183,1,,,,,1
441,441,Raskrsnica,,44.08472,20.93205,1,,,,,1
442,442,Cerjak,,44.09821,20.93356,1,,,,,1
443,443,Potok,,44.10223,20.94097,1,,,,,1
444,444,Žikina Kuća,,44.10564,20.93186,1,,,,,1
445,445,Mlin,,44.11099,20.94067,1,,,,,1
446,446,Trafo,,44.1167,20.94229,1,,,,,1
447,447,Tabla Rača,,44.09358,20.8642,1,,,,,1
448,448,Samoposluga,,44.00678,20.88741,1,,,,,1
449,449,Centralna Radionica,,44.00435,20.8932,1,,,,,1
450,450,Plaza,,44.00873,20.89723,1,,,,,1
451,451,Erdoglija,,44.01203,20.89929,1,,,,,1
452,452,Erdoglijski Potok,,44.01459,20.90197,1,,,,,1
453,453,Park,,44.01674,20.90711,1,,,,,1
454,454,Tehnička Škola,,44.0198,20.90933,1,,,,,1
455,455,Pčelički Put,,43.92715,21.00768,1,,,,,1
456,456,Živkovići,,44.00818,20.96799,1,,,,,1
457,457,Izvor,,44.00534,20.96618,1,,,,,1
458,458,Trafo,,44.01578,20.95504,1,,,,,1
459,459,Spomenik,,44.01494,20.96052,1,,,,,1
460,460,Škola,,44.01883,20.95003,1,,,,,1
461,461,Galerija,,44.02245,20.88622,1,,,,,1
462,462,Hotel,,44.02405,20.87508,1,,,,,1
463,463,Roda Centar,,44.01575,20.92309,1,,,,,1
464,464,Servis,,44.02091,20.92611,1,,,,,1
465,465,Mlekara,,44.02339,20.92762,1,,,,,1
466,466,Institut Ka Bozmanu,,44.02587,20.92907,1,,,,,1
467,467,Data Centar,,44.0297,20.93031,1,,,,,1
468,468,Bozman Raskrsnica,,44.03833,20.93662,1,,,,,1
469,469,Crkva,,43.94911,21.03388,1,,,,,1
470,470,Aksića Kuće,,44.04281,20.94369,1,,,,,1
471,471,Jovanovac Raskrsnica,,44.04535,20.94771,1,,,,,1
472,472,Mesna Kancelarija,,44.05002,20.95271,1,,,,,1
473,473,Brkića Kuća,,44.05187,20.95881,1,,,,,1
474,474,Igraliste,,44.05488,20.96464,1,,,,,1
475,475,Prodavnica,,44.0578,20.97231,1,,,,,1
476,476,Trafo,,44.05992,20.9768,1,,,,,1
477,477,Raskrsnica,,43.94908,21.02842,1,,,,,1
478,478,Vasiljevići,,43.97691,20.8959,1,,,,,1
479,479,Branko Perisić Badža,,43.981,20.89267,1,,,,,1
480,480,Erdeč 1 /Ambulanta/,,43.98308,20.89134,1,,,,,1
481,481,Erdeč Trafo,,43.98859,20.89054,1,,,,,1
482,482,Prodavnica,,43.99087,20.88887,1,,,,,1
483,483,Pruga,,43.99418,20.88845,1,,,,,1
484,484,Institut,,43.99814,20.89095,1,,,,,1
485,485,Velika Jaruga,,43.95279,21.01638,1,,,,,1
486,486,Česma,,44.01478,20.94001,1,,,,,1
487,487,Novo Naselje,,44.01596,20.9431,1,,,,,1
488,488,Milovan Pavlović Mipa,,44.01398,20.94315,1,,,,,1
489,489,Košutnjak Brdo,,44.01037,20.94521,1,,,,,1
490,490,Boškova Kuća,,43.94249,21.01028,1,,,,,1
491,491,Bagremar,,44.00762,20.88381,1,,,,,1
492,492,Prodavnica Kružni Put,,44.00708,20.87896,1,,,,,1
493,493,Nova Škola,,44.00748,20.87262,1,,,,,1
494,494,Velika Krivina,,44.00564,20.86886,1,,,,,1
495,495,Porta Zapis,,44.00197,20.87584,1,,,,,1
496,496,Stanovljansko Igralište,,44.00354,20.87159,1,,,,,1
497,497,Stara Škola,,44.00088,20.88189,1,,,,,1
498,498,Stanovo Semafor,,43.99901,20.88535,1,,,,,1
499,499,Treptač,,44.02542,20.86559,1,,,,,1
500,500,Škola,,44.02601,20.8614,1,,,,,1
501,501,Poskurički Put,,44.02651,20.85801,1,,,,,1
502,502,Crkva,,44.02743,20.85162,1,,,,,1
503,503,Šumarička Ravan,,44.02793,20.84809,1,,,,,1
504,504,Vojska,,44.02872,20.84264,1,,,,,1
505,505,Stari Hrast,,44.02974,20.83556,1,,,,,1
506,506,Divostin,,44.03146,20.82745,1,,,,,1
507,507,Pejovići,,44.03125,20.82087,1,,,,,1
508,508,Drača,,44.03296,20.81285,1,,,,,1
509,509,Spomenik,,44.03571,20.80903,1,,,,,1
510,510,Vikend Naselje,,44.03996,20.80904,1,,,,,1
511,511,Đuriselo Raskrsnica,,43.97568,20.81923,1,,,,,1
512,512,Đuriselo Igralište,,43.97671,20.81477,1,,,,,1
513,513,Prodavnica,,43.98712,20.87058,1,,,,,1
514,514,Škola,,43.98827,20.87377,1,,,,,1
515,515,Đuriselo Dom,,43.97895,20.80605,1,,,,,1
516,516,Bojanići Raskrsnica,,43.96531,20.91375,1,,,,,1
517,517,Drenovac Raskrsnica 1,,43.98398,20.83425,1,,,,,1
518,518,Pirevo 1,,43.98822,20.82966,1,,,,,1
519,519,Auto Otpad 1,,43.98905,20.82336,1,,,,,1
520,520,Polje 1,,43.98816,20.81448,1,,,,,1
521,521,Lugovi 1,,43.98949,20.81046,1,,,,,1
522,522,Štale 1,,43.99363,20.79934,1,,,,,1
523,523,Vinogradi,,44.06319,20.78467,1,,,,,1
524,524,Popova Kuća,,44.06421,20.79073,1,,,,,1
525,525,D.Grbice Igralište,,44.06653,20.79438,1,,,,,1
526,526,Škola,,43.97141,20.9102,1,,,,,1
527,527,Česma,,44.07204,20.78762,1,,,,,1
528,528,Raskrsnica,,44.07518,20.79005,1,,,,,1
529,529,Gornje Grbice Škola,,44.07755,20.796,1,,,,,1
530,530,Potok,,44.0618,20.97996,1,,,,,1
531,531,Gornja Mala,,44.06847,20.98004,1,,,,,1
532,532,Škola,,44.07044,20.97676,1,,,,,1
533,533,Miloševića Brdo,,44.07575,20.97508,1,,,,,1
534,534,Milosavljevići Raskrsnica,,44.07591,20.97131,1,,,,,1
535,535,Milosavljevići,,44.07583,20.96051,1,,,,,1
536,536,Živadinovići,,44.07428,20.95307,1,,,,,1
537,537,Živadinovići,,43.981,20.79612,1,,,,,1
538,538,Višnjak Raskrsnica,,44.00708,20.86811,1,,,,,1
539,539,Prodavnica Višnjak,,44.01193,20.86753,1,,,,,1
540,540,Ženski Raj,,44.0456,20.78773,1,,,,,1
541,541,Grbice Raskrsnica,,44.05147,20.78285,1,,,,,1
542,542,Kutlovo Stovariste,,44.05057,20.76514,1,,,,,1
543,543,Korman Kamenolom,,44.06112,20.98998,1,,,,,1
544,544,Kapovac,,44.07055,20.99792,1,,,,,1
545,545,Igraliste,,44.07429,21.00026,1,,,,,1
546,546,Raskrsnica Cerjak,,44.06427,21.01044,1,,,,,1
547,547,Kutlovo,,44.04626,20.76186,1,,,,,1
548,548,Desimirovac R. Pumpa,,44.0723,20.87735,1,,,,,1
549,549,Bapska Mala,,44.07438,20.88324,1,,,,,1
550,550,Gornja Mala,,44.07385,20.88805,1,,,,,1
551,551,Živaljevići,,44.07416,20.89375,1,,,,,1
552,552,Rogojevac,,44.03971,20.75001,1,,,,,1
553,553,Rogojevac Crkva,,44.04171,20.74176,1,,,,,1
554,554,Koš,,43.99546,20.93255,1,,,,,1
555,555,Dom Zdravlja,,43.99469,20.92874,1,,,,,1
556,556,Kikojevac I,,44.0463,20.72788,1,,,,,1
557,557,Iris,,44.02875,20.95067,1,,,,,1
558,558,Kikojevac,,44.05112,20.71581,1,,,,,1
559,559,Hala Jezero 2,,44.01336,20.92325,1,,,,,1
560,560,Dobrača Raskrsnica,,44.05145,20.70856,1,,,,,1
561,561,Tanasijevići,,44.06257,20.70752,1,,,,,1
562,562,Dobrača Dom,,44.06995,20.70655,1,,,,,1
563,563,Trafo,,44.06741,20.71555,1,,,,,1
564,564,Belodrimska Raskrsnica,,44.03283,20.89822,1,,,,,1
565,565,Đurđevići Raskrsnica,,44.08256,20.70879,1,,,,,1
566,566,Lukovići,,44.0902,20.70466,1,,,,,1
567,567,Ugljarevac,,44.09933,20.69244,1,,,,,1
568,568,Ugljarevac Raskrsnica,,44.10101,20.68559,1,,,,,1
569,569,Rakovička Raskrsnica,,43.99128,20.88308,1,,,,,1
570,570,Donje Polje,,43.98722,20.88301,1,,,,,1
571,571,Julin Dućan,,43.98146,20.93999,1,,,,,1
572,572,Katanića Breg,,44.05834,20.83414,1,,,,,1
573,573,Kod Koša,,43.98711,20.93415,1,,,,,1
574,574,Raketna Stanica,,44.10192,20.67796,1,,,,,1
575,575,Perišina Kuća,,44.09933,20.67295,1,,,,,1
576,576,Ramaća Dom,,44.09125,20.67125,1,,,,,1
577,577,Univerzitet,,44.02249,20.92036,1,,,,,1
578,578,Mlavska,,44.03829,20.90697,1,,,,,1
579,579,Betonjerka,,44.03551,20.90409,1,,,,,1
580,580,Tenkodrom,,44.03448,20.90725,1,,,,,1
581,581,Vodoterm,,44.03323,20.90101,1,,,,,1
582,582,Ilidenska,,44.00376,20.8902,1,,,,,1
583,583,Vikend Naselje Desimirovac,,44.06814,20.88062,1,,,,,1
584,584,Stara Opstina Raskrsnica,,44.01285,20.96698,1,,,,,1
585,585,Vasovići,,44.0772,20.67915,1,,,,,1
586,586,Kikindska Ka Petrovcu,,44.04591,20.92695,1,,,,,1
587,587,Resnik Raskrsnica,,44.07648,20.89955,1,,,,,1
588,588,Ruski Spomenik Okretnica,,44.05837,20.89343,1,,,,,1
589,589,Viktora Bubnja,,43.99732,20.94377,1,,,,,1
590,590,Bresnički Do,,44.00397,20.93491,1,,,,,1
593,593,Skver,,44.00201,20.93986,1,,,,,1
594,594,Metro Kruzni Tok,,44.01954,20.930666,1,,,,,1
595,595,Grujina Prodavnica,,44.03306,20.96187,1,,,,,1
596,596,Grujina Prodavnica,,44.03306,20.96209,1,,,,,1
597,597,Cerovac Dom,,44.09946,20.85847,1,,,,,1
598,598,Cerovac Raskrsnica,,44.10402,20.85005,1,,,,,1
599,599,Cerovac Selo 2,,44.10078,20.84462,1,,,,,1
600,600,Velika Sugubina,,43.94562,21.04247,1,,,,,1
601,601,Bukorovac,,44.00364,21.01656,1,,,,,1
602,602,Kamenica,,44.07258,20.64747,1,,,,,1
603,603,Donje Grbice Prodavnica,,44.07958,20.79503,1,,,,,1
604,604,Resnik,,44.12247,20.93302,1,,,,,1
605,605,Dulene,,43.86921,20.95069,1,,,,,1
606,606,Stragari,,44.15202,20.66525,1,,,,,1
607,607,Donje Komarice,,44.05925,21.0992,1,,,,,1
608,608,Mala Vrbica,,44.08877,20.72836,1,,,,,1
609,609,Pajazitovo,,44.09915,20.77369,1,,,,,1
610,610,Drenovac,,43.99642,20.7971,1,,,,,1
611,611,Lužnice,,44.10733,20.81594,1,,,,,1
612,612,Jarušice Kusovac,,44.16864,20.83917,1,,,,,1
613,613,Krejina Kafana,,43.94718,20.79543,1,,,,,1
614,614,Stovarište,,43.99511,20.94387,1,,,,,1
615,615,Cerovac Okretnica,,44.09704,20.84411,1,,,,,1
616,616,Puavice,,44.10896,20.84111,1,,,,,1
617,617,Lužnice Raskrsnica,,44.11384,20.83869,1,,,,,1
618,618,Mrkojevac,,44.08045,20.8702,1,,,,,1
619,619,Stari Mlin,,44.09042,20.86482,1,,,,,1
620,620,Jabučje Raskrsnica,,43.9892,20.98276,1,,,,,1
621,621,Groblje,,43.98729,20.98862,1,,,,,1
622,622,Mujina Kuća,,43.98803,20.9962,1,,,,,1
623,623,Škola,,43.98935,21.00135,1,,,,,1
624,624,Kovačnica,,43.99689,21.0089,1,,,,,1
625,625,Zadruga,,44.04918,20.99446,1,,,,,1
626,626,Kormanski Put Mala Reka,,44.04405,20.99705,1,,,,,1
627,627,Dolina Kuća,,44.04098,21.00131,1,,,,,1
628,628,Vila Vera,,44.12383,20.82425,1,,,,,1
629,629,Rajkin Kamen,,44.04191,21.02816,1,,,,,1
630,630,Jocića Kuća,,44.04274,21.04236,1,,,,,1
631,631,Gornja Mala,,44.04376,21.05339,1,,,,,1
632,632,Škola,,44.05156,21.06371,1,,,,,1
633,633,Stublina,,44.05402,21.07481,1,,,,,1
634,634,Kusača,,44.05533,21.09036,1,,,,,1
635,635,Kožuar,,44.13406,20.80882,1,,,,,1
636,636,Orašje Trafo,,43.93035,20.96787,1,,,,,1
637,637,Selimirova Kuća,,43.92432,20.96848,1,,,,,1
638,638,Groblje,,43.91504,20.97035,1,,,,,1
639,639,Potkivač,,43.90581,20.97496,1,,,,,1
640,640,Mesna Kancelarija,,43.90053,20.97503,1,,,,,1
641,641,Dulekana,,43.90023,20.97984,1,,,,,1
642,642,Štale,,43.90034,20.99062,1,,,,,1
643,643,Raskrsnica Denkovac,,43.89482,20.98578,1,,,,,1
644,644,Filipovića Kuća,,43.8898,20.97402,1,,,,,1
645,645,Maksimovića Kuća,,43.8851,20.95591,1,,,,,1
646,646,Nastića Kuće,,44.04866,21.05745,1,,,,,1
647,647,Lekina Bara,,44.00741,20.92561,1,,,,,1
648,648,Čumić Pošta,,44.13677,20.78393,1,,,,,1
649,649,Kremenjača,,44.13633,20.76347,1,,,,,1
650,650,Silos,,44.00937,20.92989,1,,,,,1
651,651,Svetinja,,44.14308,20.7427,1,,,,,1
652,652,Petrovići,,44.15399,20.72659,1,,,,,1
653,653,Dosina Kuća,,44.16355,20.71306,1,,,,,1
654,654,Vlakča,,44.16875,20.70723,1,,,,,1
655,655,Kotraža,,44.16189,20.6897,1,,,,,1
656,656,Koletina,,44.15979,20.67663,1,,,,,1
657,657,Azbest Pumpa,,44.15731,20.66771,1,,,,,1
658,658,Južna Obilaznica,,44.00844,20.93469,1,,,,,1
659,659,Lužnice Raskrsnica,,44.11363,20.83834,1,,,,,1
660,660,Zadruga,,44.11079,20.83031,1,,,,,1
661,661,Gaj,,44.03381,21.0105,1,,,,,1
662,662,Parlog,,44.03299,21.01641,1,,,,,1
663,663,D. Komarice Raskrs.,,44.03178,21.02089,1,,,,,1
664,664,Gašina Kuća,,44.02811,21.02482,1,,,,,1
665,665,Nastića Kuće,,44.04877,21.05744,1,,,,,1
666,666,Lepino Brdo,,43.98177,20.95624,1,,,,,1
667,667,Kafana,,44.10743,20.82542,1,,,,,1
668,668,Katanići,,44.1067,20.80256,1,,,,,1
669,669,Petrovac Igralište,,44.0421,20.91265,1,,,,,1
670,670,Jeftići,,44.10388,20.79452,1,,,,,1
671,671,Donja Sabanta,,43.95451,20.96291,1,,,,,1
672,672,Novi Milanovac,,44.07308,20.93362,1,,,,,1
673,673,Šljivovac,,44.05353,20.83841,1,,,,,1
674,674,Drača Brdo,,44.04052,20.80156,1,,,,,1
675,675,Zapis Ka Desimirovcu,,44.08441,20.8823,1,,,,,1
676,676,Bapska Mala Okretnica,,44.0868,20.88117,1,,,,,1
677,677,Trafo Okretnica,,43.98922,20.92895,1,,,,,1
678,678,Gelovića Kuće,,44.09968,20.78067,1,,,,,1
679,679,Koletina,,44.15988,20.67656,1,,,,,1
680,680,Rečani,,44.08981,20.79586,1,,,,,1
681,681,Glavica,,44.09739,20.78227,1,,,,,1
682,682,Milanovački Put 2,,44.02338,20.8811,1,,,,,1
683,683,Šumaričko Jezero,,44.02756,20.88366,1,,,,,1
684,684,Hrvatski Spomenik,,44.02614,20.89334,1,,,,,1
685,685,Đorđevića Raskrsnica,,44.04241,20.84888,1,,,,,1
686,686,Mironić,,44.10331,20.75757,1,,,,,1
687,687,Krečane,,44.11351,20.72899,1,,,,,1
688,688,Prodavnica Veliki Šenj,,44.10588,20.72854,1,,,,,1
689,689,V. Šenj Škola,,44.09828,20.72694,1,,,,,1
690,690,Markovića Kuće,,44.09076,20.72776,1,,,,,1
691,691,Mali Šenj,,44.10478,20.78768,1,,,,,1
692,692,Grada Piteštija 76,,43.99935,20.94179,1,,,,,1
693,693,Stara Samoposluga,,43.99801,20.94365,1,,,,,1
694,694,Selište,,44.07308,20.82727,1,,,,,1
695,695,Selište Mz,,44.07638,20.82336,1,,,,,1
696,696,G. Grbice Most,,44.08893,20.80192,1,,,,,1
697,697,Goločelo,,43.96277,20.8099,1,,,,,1
698,698,Donja Mala Ka Petrovcu,,44.05045,20.92433,1,,,,,1
699,699,Okretnica,,44.01597,20.85506,1,,,,,1
700,700,Hala,,44.01267,20.85585,1,,,,,1
701,701,Staro Selo,,44.01097,20.85772,1,,,,,1
702,702,Crkva,,44.00907,20.85942,1,,,,,1
703,703,Koš,,44.0067,20.86351,1,,,,,1
704,704,Fazanerija,,44.01355,20.87122,1,,,,,1
705,705,Vodovod,,44.01014,20.87783,1,,,,,1
706,706,Mileve Rajčević,,44.00925,20.88068,1,,,,,1
707,707,Raskrsnica Kružni Put,,44.00726,20.8798,1,,,,,1
708,708,Dud,,44.07615,20.71185,1,,,,,1
709,709,Lipar Raskrsnica,,43.94872,20.97343,1,,,,,1
710,710,Milatovac,,44.08938,20.98227,1,,,,,1
711,711,Maršić Okretnica,,44.024236,20.973375,1,,,,,1
712,712,Damljanovići,,44.07669,20.98064,1,,,,,1
713,713,Kostići Cvetojevac,,44.08012,20.98331,1,,,,,1
714,714,Palata Pravde,,44.025793,20.923301,1,,,,,1
715,715,Orašje Raskrsnica,,43.94375,20.97859,1,,,,,1
718,718,Gornja Sabanta 2,,43.94126,21.00352,1,,,,,1
719,719,Stara Ciglana,,43.99363,20.88402,1,,,,,1
720,720,Vikend Naselje,,43.96709,20.85418,1,,,,,1
721,721,Gvozdenovići Trafo,,43.95525,20.8543,1,,,,,1
722,722,Vikend Naselje Ka Selu,,44.13423,20.86661,1,,,,,1
723,723,Spomenik Ka Selu,,44.14212,20.85736,1,,,,,1
724,724,G.Jarušice Dom Ka Selu,,44.15103,20.85486,1,,,,,1
725,725,Trafo Ka Selu,,44.15438,20.85054,1,,,,,1
726,726,Glogovac,,44.0548,20.65554,1,,,,,1
727,727,Kamenica Škola,,44.0662,20.65167,1,,,,,1
730,730,Sušara,,43.93661,21.00983,1,,,,,1
731,731,Simens,,44.120794,20.864431,1,,,,,1
732,732,Mind,,44.122529,20.857562,1,,,,,1
733,733,Simens 2,,44.117833,20.861362,1,,,,,1
735,735,Vikend Naselje 108,,43.98967,20.97692,1,,,,,1
736,736,Vinjage,,43.98289,20.78891,1,,,,,1
740,740,Pavićevići,,44.08013,20.9319,1,,,,,1
741,741,Raskrsnica,,44.08443,20.93205,1,,,,,1
742,742,Cerjak,,44.09826,20.93375,1,,,,,1
743,743,Potok,,44.10227,20.94125,1,,,,,1
744,744,Žikina Kuća 2,,44.10565,20.93199,1,,,,,1
745,745,Mlin,,44.11088,20.94087,1,,,,,1
746,746,Trafo,,44.11679,20.94233,1,,,,,1
747,747,Tabla Rača Ka Rači,,44.09356,20.86431,1,,,,,1
755,755,Pčelički Put,,43.92692,21.00768,1,,,,,1
760,760,Okretnica Bagremar,,44.00655,20.88064,1,,,,,1
761,761,M.Obradovića 65,,44.00439,20.88299,1,,,,,1
763,763,Škola,,44.03094,20.8987,1,,,,,1
769,769,Crkva Velika Sugubina 2,,43.94906,21.03394,1,,,,,1
771,771,Nikom Ka Centru,,44.027451,20.934402,1,,,,,1
772,772,Podvoznjak Ka Centru,,44.02423,20.93192,1,,,,,1
774,774,Bresnica Crkva,,43.99059,20.93104,1,,,,,1
775,775,Zapis Ka Mali,,44.08449,20.88228,1,,,,,1
777,777,Raskrsnica 2,,43.94906,21.02829,1,,,,,1
785,785,Velika Jaruga 2,,43.95281,21.01647,1,,,,,1
790,790,Boškova Kuća 2,,43.94237,21.01018,1,,,,,1
793,793,Most,,44.07207,20.6829,1,,,,,1
794,794,Garaža,,44.06373,20.68721,1,,,,,1
795,795,Stovarište,,43.99504,20.94382,1,,,,,1
796,796,Bresnica 3,,43.99842,20.94692,1,,,,,1
797,797,Mostarska 69,,43.99975,20.94328,1,,,,,1
798,798,Skver,,44.00193,20.93982,1,,,,,1
799,799,Bresnički Do,,44.00393,20.93486,1,,,,,1
800,800,Južna Obilaznica,,44.00909,20.93453,1,,,,,1
801,801,Silos,,44.00927,20.92983,1,,,,,1
802,802,Lekina Bara,,44.00732,20.92548,1,,,,,1
803,803,Koš,,44.00677,20.86343,1,,,,,1
804,804,Crkva,,44.00917,20.85935,1,,,,,1
805,805,Staro Selo,,44.01108,20.85773,1,,,,,1
806,806,Hala,,44.01291,20.8558,1,,,,,1
808,808,Dud,,44.07626,20.71186,1,,,,,1
811,811,Đuriselo Raskrsnica,,43.97571,20.81915,1,,,,,1
812,812,Đuriselo Igralište,,43.97669,20.81484,1,,,,,1
815,815,Đuriselo Dom,,43.97899,20.80585,1,,,,,1
817,817,Drenovac Raskrsnica 2,,43.98404,20.83426,1,,,,,1
818,818,Pirevo 2,,43.98821,20.82979,1,,,,,1
819,819,Auto Otpad 2,,43.98907,20.82327,1,,,,,1
820,820,Polje 2,,43.9882,20.81435,1,,,,,1
821,821,Lugovi 2,,43.98948,20.81061,1,,,,,1
822,822,Štale 2,,43.99363,20.79944,1,,,,,1
823,823,Vinogradi,,44.06311,20.78476,1,,,,,1
824,824,Popova Kuća,,44.06425,20.79083,1,,,,,1
825,825,D.Grbice Igralište,,44.06649,20.79454,1,,,,,1
827,827,Česma,,44.07205,20.78774,1,,,,,1
828,828,Raskrsnica,,44.07523,20.7902,1,,,,,1
829,829,Gornje Grbice Škola,,44.07738,20.79588,1,,,,,1
835,835,Vikend Naselje 108,,43.98959,20.97765,1,,,,,1
836,836,Vinjage,,43.98282,20.78864,1,,,,,1
837,837,Groblje,,43.981,20.79635,1,,,,,1
840,840,Ženski Raj,,44.04579,20.78746,1,,,,,1
841,841,Grbice Raskrsnica,,44.05143,20.78302,1,,,,,1
842,842,Kutlovo Stovarište,,44.0503,20.76457,1,,,,,1
847,847,Kutlovo,,44.04641,20.76189,1,,,,,1
852,852,Rogojevac,,44.03977,20.75014,1,,,,,1
853,853,Rogojevac Crkva,,44.04163,20.74215,1,,,,,1
856,856,Kikojevac I,,44.04643,20.72787,1,,,,,1
858,858,Kikojevac,,44.0512,20.7157,1,,,,,1
860,860,Dobrača Raskrsnica,,44.05151,20.70875,1,,,,,1
861,861,Tanasijevići,,44.06255,20.70738,1,,,,,1
862,862,Dobrača Dom,,44.06985,20.70646,1,,,,,1
863,863,Trafo,,44.06747,20.71565,1,,,,,1
865,865,Đurđevićiraskrsnica,,44.08242,20.70893,1,,,,,1
866,866,Lukovići,,44.09032,20.7046,1,,,,,1
867,867,Ugljarevac,,44.09934,20.69229,1,,,,,1
868,868,Ugljarevac Raskrsnica,,44.10108,20.68538,1,,,,,1
872,872,Katanića Breg,,44.05829,20.8342,1,,,,,1
874,874,Raketna Stanica,,44.10181,20.67818,1,,,,,1
875,875,Perišina Kuća,,44.09922,20.67293,1,,,,,1
876,876,Ramaća Dom,,44.09101,20.67132,1,,,,,1
885,885,Vasovići,,44.07735,20.67908,1,,,,,1
890,890,Markovića Kuće,,44.09054,20.72769,1,,,,,1
891,891,Mali Šenj,,44.10481,20.78782,1,,,,,1
900,900,Autobuska Stanica I,,44.01029,20.92757,1,,,,,1
909,909,Pajazitovo,,44.09902,20.77377,1,,,,,1
911,911,Lužnice,,44.1074,20.81577,1,,,,,1
912,912,Damljanovići Ka Milatovcu,,44.07673,20.98074,1,,,,,1
913,913,Kostići Milatovac,,44.08021,20.98337,1,,,,,1
919,919,Stara Ciglana,,43.99369,20.88384,1,,,,,1
920,920,Jabučje Raskrsnica,,43.98913,20.98301,1,,,,,1
921,921,Groblje,,43.98725,20.98865,1,,,,,1
922,922,Mujina Kuća,,43.98801,20.99596,1,,,,,1
923,923,Škola,,43.98949,21.0013,1,,,,,1
924,924,Kovačnica,,43.99682,21.00878,1,,,,,1
925,925,Zadruga,,44.04927,20.99424,1,,,,,1
926,926,Kormanski Put Mala Reka,,44.0441,20.99694,1,,,,,1
927,927,Dolina Kuća,,44.04084,21.00148,1,,,,,1
928,928,Gornje Komarice,,44.02911,21.03169,1,,,,,1
929,929,Rajkin Kamen,,44.04184,21.02807,1,,,,,1
930,930,Jocića Kuća,,44.04278,21.04249,1,,,,,1
931,931,Gornja Mala,,44.0437,21.05351,1,,,,,1
932,932,Škola,,44.05149,21.0637,1,,,,,1
933,933,Stublina,,44.05401,21.07457,1,,,,,1
934,934,Kusača,,44.05526,21.09029,1,,,,,1
936,936,Orašje Trafo,,43.93047,20.96782,1,,,,,1
937,937,Selimirova Kuća,,43.92439,20.96834,1,,,,,1
938,938,Groblje,,43.91497,20.97028,1,,,,,1
939,939,Potkivač,,43.90587,20.97489,1,,,,,1
940,940,Mesna Kancelarija,,43.90042,20.9751,1,,,,,1
941,941,Dulekana,,43.90022,20.98006,1,,,,,1
942,942,Štale,,43.90042,20.99038,1,,,,,1
943,943,Raskrsnica Denkovac,,43.89492,20.98575,1,,,,,1
944,944,Filipovića Kuća,,43.8898,20.97424,1,,,,,1
945,945,Maksimovića Kuća,,43.88509,20.95575,1,,,,,1
956,956,Goločelo,,43.96378,20.80996,1,,,,,1
961,961,Gaj,,44.03374,21.01032,1,,,,,1
962,962,Parlog,,44.03294,21.01649,1,,,,,1
963,963,D. Komarice Raskrs.,,44.0317,21.02093,1,,,,,1
964,964,Gašina Kuća 2,,44.02808,21.02464,1,,,,,1
965,965,Velike Livade,,43.9496,20.80213,1,,,,,1
966,966,Lepino Brdo,,43.98175,20.95608,1,,,,,1
967,967,Gornje Goločelo,,43.9484,20.8012,1,,,,,1
969,969,Petrovac Igralište,,44.04223,20.91289,1,,,,,1
971,971,Nikom,,44.027817,20.934786,1,,,,,1
972,972,Bazeni,,44.03932,20.88044,1,,,,,1
985,985,Đorđevića Raskrsnica 2,,44.04253,20.84853,1,,,,,1
